{
  "date": "2026-07-15",
  "generated_at": "2026-07-05T11:58:01",
  "recommendation": {
    "recommended_city": "강릉",
    "weather": "7월 중순의 강릉은 따뜻하고 습도가 높으며, 평균 기온은 약 25도에서 30도 사이입니다. 바다 근처에서는 시원한 바람을 느낄 수 있어 여름 여행에 적합합니다.",
    "events": [
      "강릉 커피 축제",
      "강릉 바다 수영 대회"
    ],
    "reason": "강릉은 아름다운 해변과 맛있는 커피로 유명한 도시로, 여름철에 방문하기에 최적의 장소입니다. 다양한 문화 행사와 축제가 열려 여행의 즐거움을 더해줍니다. 또한, 자연 경관이 뛰어나 해양 스포츠와 레저 활동을 즐기기에 적합합니다."
  },
  "restaurants": [
    {
      "name": "대동면옥 강릉본점",
      "address": "강원특별자치도 강릉시 종합운동장길 26-8 대동면옥 강릉본점",
      "category": "한식>막국수",
      "url": "",
      "lat": 37.7738164,
      "lng": 128.8911453
    },
    {
      "name": "초당커피정미소 본점",
      "address": "강원특별자치도 강릉시 초당원길 67",
      "category": "음식점>카페,디저트",
      "url": "https://www.instagram.com/jeongmiso_coffee_gangneung",
      "lat": 37.7872599,
      "lng": 128.9137268
    },
    {
      "name": "강릉순두부장칼국수",
      "address": "강원특별자치도 강릉시 강릉대로313번길 20 1층 강릉순두부장칼국수",
      "category": "한식>칼국수,만두",
      "url": "https://smartstore.naver.com/gangreungyeok/products/9464599158",
      "lat": 37.7655185,
      "lng": 128.9023481
    },
    {
      "name": "강릉짬뽕순두부 동화가든 본점",
      "address": "강원특별자치도 강릉시 초당순두부길77번길 15 동화가든",
      "category": "한식>두부요리",
      "url": "https://www.donghwagarden.com",
      "lat": 37.7911711,
      "lng": 128.9146711
    },
    {
      "name": "기와옥초당순두부 강릉본점",
      "address": "강원특별자치도 강릉시 난설헌로 228-7 1층",
      "category": "한식>두부요리",
      "url": "",
      "lat": 37.7921639,
      "lng": 128.9145519
    }
  ],
  "errors": []
}